{
  "type": "FeatureCollection",
  "generator": "overpass-turbo",
  "copyright": "The data included in this document is from www.openstreetmap.org. The data is made available under ODbL.",
  "timestamp": "2024-07-05T14:30:34Z",
  "features": [
    {
      "type": "Feature",
      "properties": {
        "@id": "node/7272961",
        "bench": "yes",
        "bin": "yes",
        "highway": "bus_stop",
        "lit": "yes",
        "name": "Skrattmåsvägen",
        "network": "SL",
        "route_ref": "165;167;190",
        "shelter": "yes",
        "tactile_paving": "yes"
      },
      "geometry": {
        "type": "Point",
        "coordinates": [
          18.0523641,
          59.2506398
        ]
      },
      "id": "node/7272961"
    },
    {
      "type": "Feature",
      "properties": {
        "@id": "node/21639944",
        "highway": "bus_stop",
        "name": "Berwaldhallen",
        "network": "SL",
        "ref": "11060",
        "route_ref": "69;76",
        "shelter": "yes",
        "tactile_paving": "no"
      },
      "geometry": {
        "type": "Point",
        "coordinates": [
          18.0982922,
          59.3330819
        ]
      },
      "id": "node/21639944"
    },
    {
      "type": "Feature",
      "properties": {
        "@id": "node/25948183",
        "alt_name": "Stockholm C",
        "description": "Stockholm's main railway station",
        "name": "Stockholm Central",
        "public_transport": "station",
        "railway": "station",
        "railway:ref": "Cst",
        "sl_stop_id": "9000",
        "start_date": "1871-07-18",
        "uic_ref": "7400001",
        "wheelchair": "yes",
        "wikidata": "Q54315",
        "wikipedia": "sv:Stockholms centralstation"
      },
      "geometry": {
        "type": "Point",
        "coordinates": [
          18.0575007,
          59.3298746
        ]
      },
      "id": "node/25948183"
    },
    {
      "type": "Feature",
      "properties": {
        "@id": "node/27594767",
        "name": "Spånga",
        "public_transport": "station",
        "railway": "station",
        "railway:ref": "Spå",
        "sl_stop_id": "9704",
        "wheelchair": "yes",
        "wikidata": "Q10676718",
        "wikipedia": "sv:Spånga station"
      },
      "geometry": {
        "type": "Point",
        "coordinates": [
          17.8981821,
          59.3836259
        ]
      },
      "id": "node/27594767"
    },
    {
      "type": "Feature",
      "properties": {
        "@id": "node/31493912",
        "alt_name": "Unv",
        "name": "Universitetet",
        "network": "SL",
        "public_transport": "station",
        "railway": "station",
        "railway:ref": "Unv",
        "route_ref": "27;28;29",
        "sl_stop_id": "9203",
        "station": "train",
        "wheelchair": "yes",
        "wikidata": "Q290772",
        "wikipedia": "sv:Universitetets station"
      },
      "geometry": {
        "type": "Point",
        "coordinates": [
          18.0510256,
          59.3650702
        ]
      },
      "id": "node/31493912"
    },
    {
      "type": "Feature",
      "properties": {
        "@id": "node/31493940",
        "alt_name": "Östra station",
        "name": "Stockholms östra",
        "name:fi": "Tukholma itä",
        "name:sv": "Stockholms östra",
        "network": "SL",
        "platforms": "6",
        "public_transport": "station",
        "railway": "station",
        "railway:ref": "Öst",
        "ref": "Öst",
        "route_ref": "27;28;29",
        "sl_stop_id": "9600",
        "source": "yahoo",
        "station": "train",
        "wheelchair": "yes",
        "wikidata": "Q54318",
        "wikipedia": "sv:Stockholms östra station"
      },
      "geometry": {
        "type": "Point",
        "coordinates": [
          18.0706402,
          59.3465554
        ]
      },
      "id": "node/31493940"
    },
    {
      "type": "Feature",
      "properties": {
        "@id": "node/60746176",
        "name": "Tekniska högskolan",
        "network": "SL",
        "public_transport": "station",
        "railway": "station",
        "railway:ref": "teh",
        "sl_stop_id": "9204",
        "station": "subway",
        "subway": "yes",
        "wheelchair": "yes",
        "wikidata": "Q1811832",
        "wikipedia": "sv:Tekniska högskolan (tunnelbanestation)"
      },
      "geometry": {
        "type": "Point",
        "coordinates": [
          18.0708628,
          59.3457935
        ]
      },
      "id": "node/60746176"
    },
    {
      "type": "Feature",
      "properties": {
        "@id": "node/60884889",
        "name": "Hagsätra",
        "network": "SL",
        "public_transport": "station",
        "railway": "station",
        "railway:ref": "Hag",
        "sl_stop_id": "9160",
        "station": "subway",
        "wheelchair": "yes",
        "wikidata": "Q1568756",
        "wikipedia": "sv:Hagsätra (tunnelbanestation)"
      },
      "geometry": {
        "type": "Point",
        "coordinates": [
          18.012769,
          59.2625476
        ]
      },
      "id": "node/60884889"
    },
    {
      "type": "Feature",
      "properties": {
        "@id": "node/115100520",
        "highway": "bus_stop",
        "name": "Ekholmsvägen Nedre"
      },
      "geometry": {
        "type": "Point",
        "coordinates": [
          17.9014663,
          59.2786894
        ]
      },
      "id": "node/115100520"
    },
    {
      "type": "Feature",
      "properties": {
        "@id": "node/146868479",
        "name": "Björkhagen",
        "network": "SL",
        "public_transport": "station",
        "railway": "station",
        "railway:ref": "Bjh",
        "sl_stop_id": "9143",
        "station": "subway",
        "wheelchair": "yes",
        "wikidata": "Q879509",
        "wikipedia": "sv:Björkhagen (tunnelbanestation)"
      },
      "geometry": {
        "type": "Point",
        "coordinates": [
          18.1154858,
          59.291204
        ]
      },
      "id": "node/146868479"
    },
    {
      "type": "Feature",
      "properties": {
        "@id": "node/148469867",
        "bench": "yes",
        "highway": "bus_stop",
        "name": "Universitetet norra",
        "network": "SL",
        "network:wikidata": "Q970452",
        "network:wikipedia": "sv:Storstockholms Lokaltrafik",
        "ref": "69013",
        "route_ref": "608;624C;628C;639;670;676;680;690;691;696;699",
        "shelter": "yes"
      },
      "geometry": {
        "type": "Point",
        "coordinates": [
          18.0537793,
          59.3650966
        ]
      },
      "id": "node/148469867"
    },
    {
      "type": "Feature",
      "properties": {
        "@id": "node/247856877",
        "bench": "yes",
        "bin": "no",
        "highway": "bus_stop",
        "local_ref": "A",
        "name": "Gullmarsplan",
        "network": "SL",
        "ref": "13104",
        "route_ref": "4;94",
        "shelter": "no"
      },
      "geometry": {
        "type": "Point",
        "coordinates": [
          18.0811406,
          59.2991378
        ]
      },
      "id": "node/247856877"
    },
    {
      "type": "Feature",
      "properties": {
        "@id": "node/251899306",
        "highway": "bus_stop",
        "name": "Kaknäs",
        "network": "SL",
        "ref": "11038",
        "route_ref": "69",
        "shelter": "yes"
      },
      "geometry": {
        "type": "Point",
        "coordinates": [
          18.1288038,
          59.3326591
        ]
      },
      "id": "node/251899306"
    },
    {
      "type": "Feature",
      "properties": {
        "@id": "node/251899434",
        "highway": "bus_stop",
        "name": "Kaknästornet södra",
        "network": "SL",
        "ref": "11058",
        "route_ref": "69",
        "shelter": "yes"
      },
      "geometry": {
        "type": "Point",
        "coordinates": [
          18.1251669,
          59.3337093
        ]
      },
      "id": "node/251899434"
    },
    {
      "type": "Feature",
      "properties": {
        "@id": "node/254879655",
        "name": "Sätra",
        "network": "SL",
        "public_transport": "station",
        "railway": "station",
        "railway:ref": "Sät",
        "sl_stop_id": "9288",
        "station": "subway",
        "wikidata": "Q586524",
        "wikipedia": "sv:Sätra (tunnelbanestation)"
      },
      "geometry": {
        "type": "Point",
        "coordinates": [
          17.9216691,
          59.2857597
        ]
      },
      "id": "node/254879655"
    },
    {
      "type": "Feature",
      "properties": {
        "@id": "node/257785277",
        "bench": "no",
        "bin": "no",
        "check_date:shelter": "2023-09-24",
        "highway": "bus_stop",
        "name": "Kristinehamnsgatan",
        "network": "SL",
        "route_ref": "181;185H;190;193;833;893",
        "shelter": "no"
      },
      "geometry": {
        "type": "Point",
        "coordinates": [
          18.0931034,
          59.2386199
        ]
      },
      "id": "node/257785277"
    },
    {
      "type": "Feature",
      "properties": {
        "@id": "node/257785766",
        "highway": "bus_stop",
        "name": "Kilsgatan",
        "network": "SL"
      },
      "geometry": {
        "type": "Point",
        "coordinates": [
          18.0967027,
          59.2389556
        ]
      },
      "id": "node/257785766"
    },
    {
      "type": "Feature",
      "properties": {
        "@id": "node/260011144",
        "bench": "yes",
        "bin": "yes",
        "highway": "bus_stop",
        "lit": "yes",
        "name": "Londonviadukten",
        "network": "SL",
        "ref": "10591",
        "route_ref": "53;55;71;93;402",
        "shelter": "yes",
        "tactile_paving": "no"
      },
      "geometry": {
        "type": "Point",
        "coordinates": [
          18.0957606,
          59.3148912
        ]
      },
      "id": "node/260011144"
    },
    {
      "type": "Feature",
      "properties": {
        "@id": "node/296930962",
        "bench": "yes",
        "highway": "bus_stop",
        "name": "Bromma sjukhus",
        "network": "SL",
        "route_ref": "115;909",
        "shelter": "yes"
      },
      "geometry": {
        "type": "Point",
        "coordinates": [
          17.9001641,
          59.3581513
        ]
      },
      "id": "node/296930962"
    },
    {
      "type": "Feature",
      "properties": {
        "@id": "node/296930967",
        "bench": "no",
        "highway": "bus_stop",
        "network": "SL",
        "route_ref": "909",
        "shelter": "no"
      },
      "geometry": {
        "type": "Point",
        "coordinates": [
          17.8998873,
          59.3580634
        ]
      },
      "id": "node/296930967"
    },
    {
      "type": "Feature",
      "properties": {
        "@id": "node/297770381",
        "highway": "bus_stop",
        "name": "Hidinge backe",
        "network": "SL",
        "route_ref": "517",
        "shelter": "yes"
      },
      "geometry": {
        "type": "Point",
        "coordinates": [
          17.8936156,
          59.3973772
        ]
      },
      "id": "node/297770381"
    },
    {
      "type": "Feature",
      "properties": {
        "@id": "node/299345702",
        "bench": "yes",
        "highway": "bus_stop",
        "name": "Solleftegatan",
        "network": "SL",
        "ref": "12489",
        "route_ref": "115;158",
        "shelter": "yes"
      },
      "geometry": {
        "type": "Point",
        "coordinates": [
          17.8905904,
          59.3575169
        ]
      },
      "id": "node/299345702"
    },
    {
      "type": "Feature",
      "properties": {
        "@id": "node/324296898",
        "bench": "yes",
        "bin": "yes",
        "check_date:shelter": "2022-02-06",
        "highway": "bus_stop",
        "name": "Basgränd",
        "network": "SL",
        "ref": "50082",
        "route_ref": "119",
        "shelter": "yes"
      },
      "geometry": {
        "type": "Point",
        "coordinates": [
          17.8657462,
          59.3828884
        ]
      },
      "id": "node/324296898"
    },
    {
      "type": "Feature",
      "properties": {
        "@id": "node/324296900",
        "bench": "yes",
        "highway": "bus_stop",
        "name": "Basgränd",
        "network": "SL",
        "ref": "12470",
        "route_ref": "116;199",
        "shelter": "yes"
      },
      "geometry": {
        "type": "Point",
        "coordinates": [
          17.8647174,
          59.3831947
        ]
      },
      "id": "node/324296900"
    },
    {
      "type": "Feature",
      "properties": {
        "@id": "node/324296903",
        "bench": "yes",
        "highway": "bus_stop",
        "name": "Basgränd",
        "network": "SL",
        "ref": "12471",
        "route_ref": "116;199",
        "shelter": "yes"
      },
      "geometry": {
        "type": "Point",
        "coordinates": [
          17.8651053,
          59.3830414
        ]
      },
      "id": "node/324296903"
    },
    {
      "type": "Feature",
      "properties": {
        "@id": "node/324296911",
        "highway": "bus_stop",
        "name": "Tenorgränd",
        "network": "SL",
        "ref": "12439",
        "route_ref": "116;199",
        "shelter": "yes"
      },
      "geometry": {
        "type": "Point",
        "coordinates": [
          17.8589117,
          59.3830295
        ]
      },
      "id": "node/324296911"
    },
    {
      "type": "Feature",
      "properties": {
        "@id": "node/324296914",
        "bench": "yes",
        "highway": "bus_stop",
        "name": "Sörgårdsskolan",
        "network": "SL",
        "ref": "12482",
        "route_ref": "116;199",
        "shelter": "yes"
      },
      "geometry": {
        "type": "Point",
        "coordinates": [
          17.8560482,
          59.3834788
        ]
      },
      "id": "node/324296914"
    },
    {
      "type": "Feature",
      "properties": {
        "@id": "node/324296917",
        "bench": "yes",
        "highway": "bus_stop",
        "name": "Sörgårdsskolan",
        "network": "SL",
        "route_ref": "116;199",
        "shelter": "yes"
      },
      "geometry": {
        "type": "Point",
        "coordinates": [
          17.8543523,
          59.383585
        ]
      },
      "id": "node/324296917"
    },
    {
      "type": "Feature",
      "properties": {
        "@id": "node/324296920",
        "bench": "yes",
        "highway": "bus_stop",
        "name": "Tumultgränd",
        "network": "SL",
        "ref": "12485",
        "route_ref": "116;199",
        "shelter": "yes"
      },
      "geometry": {
        "type": "Point",
        "coordinates": [
          17.8508488,
          59.3840114
        ]
      },
      "id": "node/324296920"
    },
    {
      "type": "Feature",
      "properties": {
        "@id": "node/324296922",
        "bench": "yes",
        "highway": "bus_stop",
        "name": "Tumultgränd",
        "network": "SL",
        "ref": "12476",
        "route_ref": "116;199",
        "shelter": "yes"
      },
      "geometry": {
        "type": "Point",
        "coordinates": [
          17.8499889,
          59.3842071
        ]
      },
      "id": "node/324296922"
    },
    {
      "type": "Feature",
      "properties": {
        "@id": "node/324296924",
        "highway": "bus_stop",
        "name": "Björnflokevägen",
        "network": "SL",
        "ref": "12427",
        "route_ref": "116;199",
        "shelter": "yes"
      },
      "geometry": {
        "type": "Point",
        "coordinates": [
          17.8479304,
          59.3831641
        ]
      },
      "id": "node/324296924"
    },
    {
      "type": "Feature",
      "properties": {
        "@id": "node/324296926",
        "bench": "yes",
        "highway": "bus_stop",
        "name": "Björnflokevägen",
        "network": "SL",
        "ref": "12428",
        "route_ref": "116;199",
        "shelter": "yes"
      },
      "geometry": {
        "type": "Point",
        "coordinates": [
          17.8484078,
          59.3824544
        ]
      },
      "id": "node/324296926"
    },
    {
      "type": "Feature",
      "properties": {
        "@id": "node/324302189",
        "bench": "yes",
        "highway": "bus_stop",
        "name": "Skattegårdsvägen",
        "network": "SL",
        "ref": "12486",
        "route_ref": "116;199",
        "shelter": "yes"
      },
      "geometry": {
        "type": "Point",
        "coordinates": [
          17.8487292,
          59.3792451
        ]
      },
      "id": "node/324302189"
    },
    {
      "type": "Feature",
      "properties": {
        "@id": "node/324302191",
        "bench": "yes",
        "highway": "bus_stop",
        "name": "Björnmossevägen",
        "network": "SL",
        "ref": "12429",
        "route_ref": "116;199",
        "shelter": "yes"
      },
      "geometry": {
        "type": "Point",
        "coordinates": [
          17.8495208,
          59.3795139
        ]
      },
      "id": "node/324302191"
    },
    {
      "type": "Feature",
      "properties": {
        "@id": "node/324302194",
        "bench": "yes",
        "highway": "bus_stop",
        "name": "Björnbodaskolan",
        "network": "SL",
        "route_ref": "116;119;199",
        "shelter": "yes"
      },
      "geometry": {
        "type": "Point",
        "coordinates": [
          17.8495492,
          59.3781652
        ]
      },
      "id": "node/324302194"
    },
    {
      "type": "Feature",
      "properties": {
        "@id": "node/324302196",
        "bench": "yes",
        "highway": "bus_stop",
        "name": "Björnbodaskolan",
        "network": "SL",
        "route_ref": "116;119;199",
        "shelter": "yes"
      },
      "geometry": {
        "type": "Point",
        "coordinates": [
          17.849724,
          59.3780222
        ]
      },
      "id": "node/324302196"
    },
    {
      "type": "Feature",
      "properties": {
        "@id": "node/324302199",
        "bench": "yes",
        "highway": "bus_stop",
        "name": "Björnbodavägen",
        "network": "SL",
        "route_ref": "116;119;199",
        "shelter": "yes"
      },
      "geometry": {
        "type": "Point",
        "coordinates": [
          17.8546978,
          59.3780057
        ]
      },
      "id": "node/324302199"
    },
    {
      "type": "Feature",
      "properties": {
        "@id": "node/324302201",
        "bench": "yes",
        "bin": "yes",
        "highway": "bus_stop",
        "name": "Ullvidevägen",
        "network": "SL",
        "route_ref": "116;199",
        "shelter": "yes"
      },
      "geometry": {
        "type": "Point",
        "coordinates": [
          17.8568967,
          59.3766861
        ]
      },
      "id": "node/324302201"
    },
    {
      "type": "Feature",
      "properties": {
        "@id": "node/324302203",
        "bench": "yes",
        "highway": "bus_stop",
        "name": "Ullvidevägen",
        "network": "SL",
        "route_ref": "116;199",
        "shelter": "yes"
      },
      "geometry": {
        "type": "Point",
        "coordinates": [
          17.8563695,
          59.3761121
        ]
      },
      "id": "node/324302203"
    },
    {
      "type": "Feature",
      "properties": {
        "@id": "node/324302204",
        "highway": "bus_stop",
        "name": "Krossgatan",
        "network": "SL",
        "route_ref": "116;199"
      },
      "geometry": {
        "type": "Point",
        "coordinates": [
          17.8572762,
          59.3733874
        ]
      },
      "id": "node/324302204"
    },
    {
      "type": "Feature",
      "properties": {
        "@id": "node/324302205",
        "bench": "yes",
        "highway": "bus_stop",
        "name": "Krossgatan",
        "network": "SL",
        "route_ref": "116;199",
        "shelter": "yes"
      },
      "geometry": {
        "type": "Point",
        "coordinates": [
          17.8566613,
          59.3740866
        ]
      },
      "id": "node/324302205"
    },
    {
      "type": "Feature",
      "properties": {
        "@id": "node/324302215",
        "bench": "yes",
        "highway": "bus_stop",
        "name": "Sorselevägen",
        "network": "SL",
        "route_ref": "116;199",
        "shelter": "yes"
      },
      "geometry": {
        "type": "Point",
        "coordinates": [
          17.8674877,
          59.3703873
        ]
      },
      "id": "node/324302215"
    },
    {
      "type": "Feature",
      "properties": {
        "@id": "node/324302216",
        "bench": "yes",
        "highway": "bus_stop",
        "name": "Härjedalsgatan",
        "network": "SL",
        "route_ref": "116;179;199",
        "shelter": "yes"
      },
      "geometry": {
        "type": "Point",
        "coordinates": [
          17.8728211,
          59.3672031
        ]
      },
      "id": "node/324302216"
    },
    {
      "type": "Feature",
      "properties": {
        "@id": "node/324302217",
        "bench": "yes",
        "highway": "bus_stop",
        "lit": "yes",
        "name": "Härjedalsgatan",
        "network": "SL",
        "route_ref": "116;179;199",
        "shelter": "yes",
        "tactile_paving": "yes"
      },
      "geometry": {
        "type": "Point",
        "coordinates": [
          17.8722335,
          59.3663378
        ]
      },
      "id": "node/324302217"
    },
    {
      "type": "Feature",
      "properties": {
        "@id": "node/334054089",
        "bench": "yes",
        "bin": "yes",
        "bus": "yes",
        "highway": "bus_stop",
        "lit": "yes",
        "name": "Bromma flygplats",
        "network": "Flygbussarna",
        "network:wikidata": "Q775247",
        "public_transport": "platform",
        "shelter": "yes",
        "tactile_paving": "yes"
      },
      "geometry": {
        "type": "Point",
        "coordinates": [
          17.9461178,
          59.3558993
        ]
      },
      "id": "node/334054089"
    },
    {
      "type": "Feature",
      "properties": {
        "@id": "node/357182456",
        "highway": "bus_stop",
        "name": "Rökubbsgatan",
        "network": "SL",
        "ref": "10059",
        "route_ref": "1;91",
        "shelter": "yes",
        "source": "local_knowledge"
      },
      "geometry": {
        "type": "Point",
        "coordinates": [
          18.1090456,
          59.345465
        ]
      },
      "id": "node/357182456"
    },
    {
      "type": "Feature",
      "properties": {
        "@id": "node/357183817",
        "highway": "bus_stop",
        "name": "Rökubbsgatan",
        "network": "SL",
        "ref": "10058",
        "route_ref": "1;91",
        "shelter": "yes",
        "source": "local_knowledge"
      },
      "geometry": {
        "type": "Point",
        "coordinates": [
          18.1099453,
          59.3442576
        ]
      },
      "id": "node/357183817"
    },
    {
      "type": "Feature",
      "properties": {
        "@id": "node/357184353",
        "highway": "bus_stop",
        "name": "Sandhamnsplan",
        "network": "SL",
        "ref": "10061",
        "route_ref": "1;91",
        "shelter": "yes",
        "source": "local_knowledge"
      },
      "geometry": {
        "type": "Point",
        "coordinates": [
          18.107525,
          59.3468952
        ]
      },
      "id": "node/357184353"
    },
    {
      "type": "Feature",
      "properties": {
        "@id": "node/357184660",
        "highway": "bus_stop",
        "name": "Sandhamnsplan",
        "network": "SL",
        "ref": "10060",
        "route_ref": "1;91",
        "shelter": "no",
        "source": "local_knowledge"
      },
      "geometry": {
        "type": "Point",
        "coordinates": [
          18.1074606,
          59.3467178
        ]
      },
      "id": "node/357184660"
    },
    {
      "type": "Feature",
      "properties": {
        "@id": "node/360914533",
        "bench": "yes",
        "bin": "yes",
        "highway": "bus_stop",
        "map": "yes",
        "name": "Åmänningevägen",
        "network": "SL",
        "realtime_info": "yes",
        "ref": "13213",
        "route_ref": "160;164;168",
        "shelter": "yes"
      },
      "geometry": {
        "type": "Point",
        "coordinates": [
          18.0466629,
          59.2983312
        ]
      },
      "id": "node/360914533"
    },
    {
      "type": "Feature",
      "properties": {
        "@id": "node/370160994",
        "highway": "bus_stop",
        "name": "Östhammarsgatan",
        "network": "SL",
        "ref": "10057",
        "route_ref": "1;91",
        "shelter": "yes",
        "source": "local_knowledge"
      },
      "geometry": {
        "type": "Point",
        "coordinates": [
          18.1106786,
          59.3429545
        ]
      },
      "id": "node/370160994"
    },
    {
      "type": "Feature",
      "properties": {
        "@id": "node/370161341",
        "highway": "bus_stop",
        "name": "Östhammarsgatan",
        "network": "SL",
        "ref": "10056",
        "route_ref": "1;91",
        "shelter": "yes",
        "source": "local_knowledge"
      },
      "geometry": {
        "type": "Point",
        "coordinates": [
          18.1103289,
          59.3429699
        ]
      },
      "id": "node/370161341"
    },
    {
      "type": "Feature",
      "properties": {
        "@id": "node/370161667",
        "highway": "bus_stop",
        "name": "Östhammarsgatan",
        "network": "SL",
        "ref": "10150",
        "route_ref": "72",
        "shelter": "yes",
        "source": "local_knowledge"
      },
      "geometry": {
        "type": "Point",
        "coordinates": [
          18.1100696,
          59.3429196
        ]
      },
      "id": "node/370161667"
    },
    {
      "type": "Feature",
      "properties": {
        "@id": "node/370168879",
        "bench": "yes",
        "bin": "yes",
        "check_date": "2019-12-18",
        "highway": "bus_stop",
        "lit": "yes",
        "name": "Stadsbiblioteket",
        "network": "SL",
        "ref": "10188",
        "route_ref": "2;6;4;50;61;67;72;94;96;690;691",
        "shelter": "yes",
        "tactile_paving": "no"
      },
      "geometry": {
        "type": "Point",
        "coordinates": [
          18.0547727,
          59.3438704
        ]
      },
      "id": "node/370168879"
    },
    {
      "type": "Feature",
      "properties": {
        "@id": "node/372664695",
        "bench": "no",
        "bin": "no",
        "departures_board": "timetable",
        "highway": "bus_stop",
        "name": "Starrbäcksängen",
        "network": "SL",
        "ref": "10920",
        "route_ref": "291",
        "shelter": "no",
        "tactile_paving": "yes"
      },
      "geometry": {
        "type": "Point",
        "coordinates": [
          18.0866787,
          59.3470556
        ]
      },
      "id": "node/372664695"
    },
    {
      "type": "Feature",
      "properties": {
        "@id": "node/372681410",
        "bench": "yes",
        "bin": "yes",
        "check_date": "2019-12-25",
        "highway": "bus_stop",
        "lit": "yes",
        "name": "Stadion",
        "network": "SL",
        "ref": "10196",
        "route_ref": "4;6;72;94",
        "shelter": "yes",
        "tactile_paving": "no"
      },
      "geometry": {
        "type": "Point",
        "coordinates": [
          18.0755265,
          59.344823
        ]
      },
      "id": "node/372681410"
    },
    {
      "type": "Feature",
      "properties": {
        "@id": "node/372691246",
        "highway": "bus_stop",
        "local_ref": "E",
        "name": "Tekniska högskolan",
        "network": "SL",
        "ref": "60087",
        "route_ref": "670;699",
        "shelter": "yes"
      },
      "geometry": {
        "type": "Point",
        "coordinates": [
          18.072358,
          59.3453878
        ]
      },
      "id": "node/372691246"
    },
    {
      "type": "Feature",
      "properties": {
        "@id": "node/372691288",
        "bench": "yes",
        "bin": "yes",
        "highway": "bus_stop",
        "lit": "yes",
        "local_ref": "G",
        "name": "Tekniska högskolan",
        "network": "SL",
        "ref": "60088",
        "route_ref": "676;696",
        "shelter": "yes",
        "tactile_paving": "yes"
      },
      "geometry": {
        "type": "Point",
        "coordinates": [
          18.0721551,
          59.3452778
        ]
      },
      "id": "node/372691288"
    },
    {
      "type": "Feature",
      "properties": {
        "@id": "node/372734402",
        "bench": "no",
        "check_date:shelter": "2024-05-15",
        "highway": "bus_stop",
        "name": "Roslagstull",
        "network": "SL",
        "ref": "67043",
        "route_ref": "608;624C;628C;639;670;676;680",
        "shelter": "no"
      },
      "geometry": {
        "type": "Point",
        "coordinates": [
          18.0579596,
          59.3507826
        ]
      },
      "id": "node/372734402"
    },
    {
      "type": "Feature",
      "properties": {
        "@id": "node/372783114",
        "highway": "bus_stop",
        "name": "Roslagstull",
        "network": "SL",
        "ref": "10770",
        "route_ref": "608;624C;628C;670;680;690;691",
        "shelter": "no"
      },
      "geometry": {
        "type": "Point",
        "coordinates": [
          18.0600037,
          59.3496254
        ]
      },
      "id": "node/372783114"
    },
    {
      "type": "Feature",
      "properties": {
        "@id": "node/373434192",
        "bench": "yes",
        "highway": "bus_stop",
        "name": "Tessinparken",
        "network": "SL",
        "ref": "10926",
        "route_ref": "54",
        "shelter": "yes"
      },
      "geometry": {
        "type": "Point",
        "coordinates": [
          18.0931374,
          59.3453986
        ]
      },
      "id": "node/373434192"
    },
    {
      "type": "Feature",
      "properties": {
        "@id": "node/373448030",
        "bench": "yes",
        "highway": "bus_stop",
        "name": "Kallskärsgatan",
        "network": "SL",
        "ref": "10924",
        "route_ref": "54",
        "shelter": "yes"
      },
      "geometry": {
        "type": "Point",
        "coordinates": [
          18.0914677,
          59.3425385
        ]
      },
      "id": "node/373448030"
    },
    {
      "type": "Feature",
      "properties": {
        "@id": "node/373451974",
        "bench": "yes",
        "highway": "bus_stop",
        "name": "Erik Dahlbergsgatan",
        "network": "SL",
        "network:wikidata": "Q970452",
        "ref": "10921",
        "route_ref": "54",
        "shelter": "yes"
      },
      "geometry": {
        "type": "Point",
        "coordinates": [
          18.0911939,
          59.3414756
        ]
      },
      "id": "node/373451974"
    },
    {
      "type": "Feature",
      "properties": {
        "@id": "node/373459791",
        "highway": "bus_stop",
        "name": "Karlaplan",
        "ref": "10207",
        "route_ref": "67",
        "shelter": "yes",
        "speech_output:se": "yes"
      },
      "geometry": {
        "type": "Point",
        "coordinates": [
          18.0903557,
          59.3383722
        ]
      },
      "id": "node/373459791"
    },
    {
      "type": "Feature",
      "properties": {
        "@id": "node/373459897",
        "bench": "yes",
        "highway": "bus_stop",
        "lit": "yes",
        "name": "Karlaplan",
        "passenger_information_display": "yes",
        "passenger_information_display:speech_output": "yes",
        "ref": "11025",
        "route_ref": "67",
        "shelter": "yes",
        "speech_output:se": "yes"
      },
      "geometry": {
        "type": "Point",
        "coordinates": [
          18.0907974,
          59.3382882
        ]
      },
      "id": "node/373459897"
    },
    {
      "type": "Feature",
      "properties": {
        "@id": "node/373473679",
        "bench": "yes",
        "highway": "bus_stop",
        "name": "Historiska museet",
        "network": "SL",
        "ref": "10212",
        "route_ref": "67",
        "shelter": "yes"
      },
      "geometry": {
        "type": "Point",
        "coordinates": [
          18.0923246,
          59.3345497
        ]
      },
      "id": "node/373473679"
    },
    {
      "type": "Feature",
      "properties": {
        "@id": "node/373475033",
        "bench": "yes",
        "highway": "bus_stop",
        "name": "Historiska museet",
        "network": "SL",
        "ref": "10209",
        "route_ref": "67",
        "shelter": "yes"
      },
      "geometry": {
        "type": "Point",
        "coordinates": [
          18.0915383,
          59.3343035
        ]
      },
      "id": "node/373475033"
    },
    {
      "type": "Feature",
      "properties": {
        "@id": "node/373478708",
        "check_date": "2020-02-03",
        "highway": "bus_stop",
        "name": "Strandvägen",
        "network": "SL",
        "ref": "10214",
        "route_ref": "67;68",
        "shelter": "yes"
      },
      "geometry": {
        "type": "Point",
        "coordinates": [
          18.0932864,
          59.3328487
        ]
      },
      "id": "node/373478708"
    },
    {
      "type": "Feature",
      "properties": {
        "@id": "node/376309049",
        "bench": "yes",
        "bin": "yes",
        "check_date:shelter": "2022-07-04",
        "highway": "bus_stop",
        "name": "Universitetet södra",
        "network": "SL",
        "ref": "69012",
        "route_ref": "50;636;637;639;670;676;680;690;691;696;699",
        "shelter": "yes",
        "tactile_paving": "yes"
      },
      "geometry": {
        "type": "Point",
        "coordinates": [
          18.0557356,
          59.3599778
        ]
      },
      "id": "node/376309049"
    },
    {
      "type": "Feature",
      "properties": {
        "@id": "node/377701938",
        "bench": "no",
        "bin": "no",
        "highway": "bus_stop",
        "name": "Erik Dahlbergsgatan",
        "network": "SL",
        "ref": "10848",
        "route_ref": "291",
        "shelter": "no",
        "tactile_paving": "no"
      },
      "geometry": {
        "type": "Point",
        "coordinates": [
          18.0919611,
          59.3485069
        ]
      },
      "id": "node/377701938"
    },
    {
      "type": "Feature",
      "properties": {
        "@id": "node/377702151",
        "bench": "no",
        "highway": "bus_stop",
        "name": "Tegeluddsvägen",
        "network": "SL",
        "ref": "10872",
        "route_ref": "291",
        "shelter": "no"
      },
      "geometry": {
        "type": "Point",
        "coordinates": [
          18.0967072,
          59.3499244
        ]
      },
      "id": "node/377702151"
    },
    {
      "type": "Feature",
      "properties": {
        "@id": "node/377702437",
        "bench": "no",
        "bin": "no",
        "departures_board": "timetable",
        "highway": "bus_stop",
        "name": "Tegeluddsvägen",
        "network": "SL",
        "ref": "10871",
        "route_ref": "291",
        "shelter": "no",
        "tactile_paving": "yes"
      },
      "geometry": {
        "type": "Point",
        "coordinates": [
          18.0963242,
          59.3495758
        ]
      },
      "id": "node/377702437"
    },
    {
      "type": "Feature",
      "properties": {
        "@id": "node/377708405",
        "bench": "yes",
        "bin": "no",
        "highway": "bus_stop",
        "mapillary": "479046883327468",
        "name": "Norrtull",
        "network": "SL",
        "ref": "10553",
        "route_ref": "515;516;526;561;565;595",
        "shelter": "yes",
        "survey:date": "2019-06-25",
        "tactile_paving": "no"
      },
      "geometry": {
        "type": "Point",
        "coordinates": [
          18.0455495,
          59.3503276
        ]
      },
      "id": "node/377708405"
    },
    {
      "type": "Feature",
      "properties": {
        "@id": "node/410515307",
        "bench": "yes",
        "highway": "bus_stop",
        "name": "Östermalms idrottsplats",
        "network": "SL",
        "passenger_information_display": "yes",
        "ref": "10714",
        "route_ref": "6;54;75",
        "shelter": "yes",
        "source": "survey"
      },
      "geometry": {
        "type": "Point",
        "coordinates": [
          18.0820853,
          59.3474272
        ]
      },
      "id": "node/410515307"
    },
    {
      "type": "Feature",
      "properties": {
        "@id": "node/410521626",
        "bench": "yes",
        "bin": "yes",
        "highway": "bus_stop",
        "lit": "yes",
        "name": "Humlegården",
        "network": "SL",
        "passenger_information_display": "yes",
        "ref": "10034",
        "route_ref": "1;75;91;291",
        "shelter": "yes",
        "tactile_paving": "yes"
      },
      "geometry": {
        "type": "Point",
        "coordinates": [
          18.0759204,
          59.3400905
        ]
      },
      "id": "node/410521626"
    },
    {
      "type": "Feature",
      "properties": {
        "@id": "node/410551771",
        "bench": "yes",
        "bin": "yes",
        "highway": "bus_stop",
        "lit": "yes",
        "local_ref": "B",
        "name": "Humlegården",
        "network": "SL",
        "ref": "11503",
        "route_ref": "624C;628C",
        "shelter": "yes",
        "tactile_paving": "yes"
      },
      "geometry": {
        "type": "Point",
        "coordinates": [
          18.071188,
          59.3376416
        ]
      },
      "id": "node/410551771"
    },
    {
      "type": "Feature",
      "properties": {
        "@id": "node/410603502",
        "bench": "yes",
        "bin": "yes",
        "highway": "bus_stop",
        "lit": "yes",
        "name": "Bolinders plan",
        "network": "SL",
        "ref": "10535",
        "route_ref": "54",
        "shelter": "yes",
        "tactile_paving": "yes"
      },
      "geometry": {
        "type": "Point",
        "coordinates": [
          18.0506971,
          59.3297988
        ]
      },
      "id": "node/410603502"
    },
    {
      "type": "Feature",
      "properties": {
        "@id": "node/410623806",
        "bench": "yes",
        "bin": "yes",
        "highway": "bus_stop",
        "lit": "yes",
        "name": "Stadshuset",
        "network": "SL",
        "ref": "10381",
        "route_ref": "3",
        "shelter": "yes",
        "tactile_paving": "yes"
      },
      "geometry": {
        "type": "Point",
        "coordinates": [
          18.054537,
          59.3279457
        ]
      },
      "id": "node/410623806"
    },
    {
      "type": "Feature",
      "properties": {
        "@id": "node/410624526",
        "bench": "yes",
        "check_date:shelter": "2023-09-03",
        "highway": "bus_stop",
        "name": "Stadshuset",
        "network": "SL",
        "ref": "10382",
        "route_ref": "3",
        "shelter": "yes"
      },
      "geometry": {
        "type": "Point",
        "coordinates": [
          18.0538163,
          59.328038
        ]
      },
      "id": "node/410624526"
    },
    {
      "type": "Feature",
      "properties": {
        "@id": "node/410630388",
        "bus": "yes",
        "highway": "bus_stop",
        "name": "City tour hop on/off",
        "operator": "Open Top Tours Stockholm",
        "public_transport": "platform",
        "ref": "4",
        "shelter": "no",
        "tactile_paving": "no"
      },
      "geometry": {
        "type": "Point",
        "coordinates": [
          18.0591909,
          59.3280523
        ]
      },
      "id": "node/410630388"
    },
    {
      "type": "Feature",
      "properties": {
        "@id": "node/410660420",
        "bench": "yes",
        "bin": "no",
        "highway": "bus_stop",
        "lit": "yes",
        "name": "Zinkensdamm",
        "operator": "SL",
        "ref": "10655",
        "route_ref": "4;66;74;94;191;192",
        "shelter": "yes",
        "tactile_paving": "yes"
      },
      "geometry": {
        "type": "Point",
        "coordinates": [
          18.0514928,
          59.317416
        ]
      },
      "id": "node/410660420"
    },
    {
      "type": "Feature",
      "properties": {
        "@id": "node/413501516",
        "bench": "yes",
        "bin": "yes",
        "check_date": "2019-12-15",
        "highway": "bus_stop",
        "lit": "yes",
        "local_ref": "C",
        "name": "Odenplan",
        "network": "SL",
        "ref": "10341",
        "route_ref": "4;6;67;72;94",
        "shelter": "yes",
        "tactile_paving": "yes"
      },
      "geometry": {
        "type": "Point",
        "coordinates": [
          18.0505523,
          59.3430161
        ]
      },
      "id": "node/413501516"
    },
    {
      "type": "Feature",
      "properties": {
        "@id": "node/413505995",
        "bench": "yes",
        "bin": "yes",
        "check_date": "2020-01-06",
        "highway": "bus_stop",
        "lit": "yes",
        "local_ref": "H",
        "name": "Odenplan",
        "network": "SL",
        "ref": "10579",
        "route_ref": "53;507",
        "shelter": "yes",
        "tactile_paving": "yes"
      },
      "geometry": {
        "type": "Point",
        "coordinates": [
          18.0484123,
          59.3426356
        ]
      },
      "id": "node/413505995"
    },
    {
      "type": "Feature",
      "properties": {
        "@id": "node/413532452",
        "bench": "yes",
        "bin": "yes",
        "highway": "bus_stop",
        "lit": "yes",
        "name": "Landstingshuset",
        "network": "SL",
        "ref": "10375",
        "route_ref": "3;54;61",
        "shelter": "yes",
        "tactile_paving": "yes"
      },
      "geometry": {
        "type": "Point",
        "coordinates": [
          18.0404977,
          59.3293136
        ]
      },
      "id": "node/413532452"
    },
    {
      "type": "Feature",
      "properties": {
        "@id": "node/413544441",
        "bench": "yes",
        "bin": "yes",
        "highway": "bus_stop",
        "lit": "yes",
        "name": "Västerbroplan",
        "network": "SL;Flygbussarna",
        "ref": "10645",
        "route_ref": "4;54;74;77;94;151;153;405;726;743;745",
        "shelter": "yes",
        "tactile_paving": "yes"
      },
      "geometry": {
        "type": "Point",
        "coordinates": [
          18.0217315,
          59.327881
        ]
      },
      "id": "node/413544441"
    },
    {
      "type": "Feature",
      "properties": {
        "@id": "node/413546971",
        "bench": "yes",
        "bin": "yes",
        "highway": "bus_stop",
        "name": "Västerbroplan",
        "network": "SL;Flygbussarna",
        "ref": "10646",
        "route_ref": "4;54;74;77;94;151;153",
        "shelter": "yes"
      },
      "geometry": {
        "type": "Point",
        "coordinates": [
          18.0220968,
          59.3284104
        ]
      },
      "id": "node/413546971"
    },
    {
      "type": "Feature",
      "properties": {
        "@id": "node/413551318",
        "bench": "yes",
        "highway": "bus_stop",
        "name": "Högalidsgatan",
        "network": "SL",
        "ref": "10647",
        "route_ref": "54;74;77;94",
        "shelter": "yes"
      },
      "geometry": {
        "type": "Point",
        "coordinates": [
          18.0322868,
          59.3179757
        ]
      },
      "id": "node/413551318"
    },
    {
      "type": "Feature",
      "properties": {
        "@id": "node/413558292",
        "bench": "yes",
        "bin": "yes",
        "highway": "bus_stop",
        "lit": "yes",
        "local_ref": "D",
        "name": "Hornstull",
        "network": "SL;Flygbussarna",
        "ref": "70633",
        "route_ref": "77;151;153;726;743;745",
        "shelter": "yes",
        "tactile_paving": "no"
      },
      "geometry": {
        "type": "Point",
        "coordinates": [
          18.0340035,
          59.3149731
        ]
      },
      "id": "node/413558292"
    },
    {
      "type": "Feature",
      "properties": {
        "@id": "node/415278809",
        "bench": "yes",
        "bin": "yes",
        "highway": "bus_stop",
        "lit": "yes",
        "name": "Ansgariegatan",
        "operator": "SL",
        "ref": "10653",
        "route_ref": "74;94;191;192",
        "shelter": "yes",
        "tactile_paving": "yes"
      },
      "geometry": {
        "type": "Point",
        "coordinates": [
          18.0471197,
          59.3168411
        ]
      },
      "id": "node/415278809"
    },
    {
      "type": "Feature",
      "properties": {
        "@id": "node/415279623",
        "bench": "yes",
        "bin": "yes",
        "highway": "bus_stop",
        "lit": "yes",
        "name": "Ansgariegatan",
        "network": "SL",
        "ref": "10654",
        "route_ref": "74;94;190;191;192",
        "shelter": "yes",
        "tactile_paving": "yes"
      },
      "geometry": {
        "type": "Point",
        "coordinates": [
          18.0458758,
          59.3168861
        ]
      },
      "id": "node/415279623"
    },
    {
      "type": "Feature",
      "properties": {
        "@id": "node/415281528",
        "bench": "yes",
        "bin": "no",
        "highway": "bus_stop",
        "lit": "yes",
        "mapillary": "373746297380734",
        "name": "Varvsgatan",
        "network": "SL",
        "ref": "10652",
        "route_ref": "4;94;191;192",
        "shelter": "yes",
        "survey:date": "2020-05-30",
        "tactile_paving": "yes"
      },
      "geometry": {
        "type": "Point",
        "coordinates": [
          18.0400509,
          59.316118
        ]
      },
      "id": "node/415281528"
    },
    {
      "type": "Feature",
      "properties": {
        "@id": "node/415284431",
        "bench": "no",
        "bin": "yes",
        "highway": "bus_stop",
        "lit": "yes",
        "name": "Hornstull",
        "network": "SL",
        "ref": "70693",
        "route_ref": "191;192",
        "shelter": "no",
        "tactile_paving": "no"
      },
      "geometry": {
        "type": "Point",
        "coordinates": [
          18.035284,
          59.3155159
        ]
      },
      "id": "node/415284431"
    },
    {
      "type": "Feature",
      "properties": {
        "@id": "node/415305265",
        "highway": "bus_stop",
        "name": "Kulturskolans hus",
        "network": "SL",
        "network:wikidata": "Q970452",
        "network:wikipedia": "sv:Storstockholms Lokaltrafik",
        "ref": "10265",
        "route_ref": "56;65",
        "shelter": "yes"
      },
      "geometry": {
        "type": "Point",
        "coordinates": [
          18.0255009,
          59.3349948
        ]
      },
      "id": "node/415305265"
    },
    {
      "type": "Feature",
      "properties": {
        "@id": "node/415305494",
        "bench": "yes",
        "highway": "bus_stop",
        "name": "Kulturskolans hus",
        "network": "SL",
        "network:wikidata": "Q970452",
        "network:wikipedia": "sv:Storstockholms Lokaltrafik",
        "ref": "10266",
        "route_ref": "56;65",
        "shelter": "yes"
      },
      "geometry": {
        "type": "Point",
        "coordinates": [
          18.0250868,
          59.3346616
        ]
      },
      "id": "node/415305494"
    },
    {
      "type": "Feature",
      "properties": {
        "@id": "node/418791934",
        "bench": "yes",
        "bin": "no",
        "departures_board": "realtime",
        "highway": "bus_stop",
        "lit": "yes",
        "local_ref": "H",
        "name": "Ropsten",
        "network": "SL",
        "network:wikidata": "Q970452",
        "passenger_information_display": "yes",
        "ref": "10862",
        "route_ref": "6;75",
        "shelter": "yes",
        "tactile_paving": "yes"
      },
      "geometry": {
        "type": "Point",
        "coordinates": [
          18.1038091,
          59.3576266
        ]
      },
      "id": "node/418791934"
    },
    {
      "type": "Feature",
      "properties": {
        "@id": "node/418791959",
        "departures_board": "realtime",
        "highway": "bus_stop",
        "local_ref": "F",
        "name": "Ropsten",
        "network": "SL",
        "network:wikidata": "Q970452",
        "ref": "20011",
        "route_ref": "206",
        "shelter": "yes"
      },
      "geometry": {
        "type": "Point",
        "coordinates": [
          18.10388,
          59.3573654
        ]
      },
      "id": "node/418791959"
    },
    {
      "type": "Feature",
      "properties": {
        "@id": "node/418792110",
        "departures_board": "realtime",
        "highway": "bus_stop",
        "local_ref": "G",
        "name": "Ropsten",
        "network": "SL",
        "network:wikidata": "Q970452",
        "ref": "20013",
        "route_ref": "205",
        "shelter": "yes"
      },
      "geometry": {
        "type": "Point",
        "coordinates": [
          18.1034337,
          59.3574568
        ]
      },
      "id": "node/418792110"
    },
    {
      "type": "Feature",
      "properties": {
        "@id": "node/419246147",
        "departures_board": "realtime",
        "highway": "bus_stop",
        "local_ref": "C",
        "name": "Ropsten",
        "network": "SL",
        "network:wikidata": "Q970452",
        "ref": "20901",
        "route_ref": "205;225;291",
        "shelter": "yes"
      },
      "geometry": {
        "type": "Point",
        "coordinates": [
          18.1041888,
          59.3571904
        ]
      },
      "id": "node/419246147"
    },
    {
      "type": "Feature",
      "properties": {
        "@id": "node/420573132",
        "bench": "yes",
        "bin": "yes",
        "highway": "bus_stop",
        "lit": "yes",
        "name": "Västberga kyrkogårdsväg",
        "network": "SL",
        "ref": "14029",
        "route_ref": "145;165",
        "shelter": "yes",
        "tactile_paving": "yes"
      },
      "geometry": {
        "type": "Point",
        "coordinates": [
          18.0187571,
          59.2896217
        ]
      },
      "id": "node/420573132"
    },
    {
      "type": "Feature",
      "properties": {
        "@id": "node/420573135",
        "bench": "yes",
        "bin": "no",
        "highway": "bus_stop",
        "lit": "yes",
        "name": "Västberga kyrkogårdsväg",
        "network": "SL",
        "ref": "13462",
        "route_ref": "145;165",
        "shelter": "yes",
        "tactile_paving": "yes"
      },
      "geometry": {
        "type": "Point",
        "coordinates": [
          18.0184103,
          59.2896189
        ]
      },
      "id": "node/420573135"
    },
    {
      "type": "Feature",
      "properties": {
        "@id": "node/428041033",
        "highway": "bus_stop",
        "name": "Hökarängen",
        "network": "SL",
        "route_ref": "173",
        "shelter": "yes"
      },
      "geometry": {
        "type": "Point",
        "coordinates": [
          18.082908,
          59.2583526
        ]
      },
      "id": "node/428041033"
    },
    {
      "type": "Feature",
      "properties": {
        "@id": "node/428041034",
        "highway": "bus_stop",
        "name": "Hökarängen",
        "network": "SL",
        "shelter": "yes"
      },
      "geometry": {
        "type": "Point",
        "coordinates": [
          18.0819,
          59.2579462
        ]
      },
      "id": "node/428041034"
    },
    {
      "type": "Feature",
      "properties": {
        "@id": "node/428041035",
        "highway": "bus_stop",
        "name": "Hökarängen",
        "network": "SL",
        "network:wikidata": "Q970452",
        "route_ref": "172",
        "shelter": "yes"
      },
      "geometry": {
        "type": "Point",
        "coordinates": [
          18.0826532,
          59.2580589
        ]
      },
      "id": "node/428041035"
    },
    {
      "type": "Feature",
      "properties": {
        "@id": "node/428067273",
        "bench": "yes",
        "bin": "yes",
        "highway": "bus_stop",
        "name": "Sköndals centrum",
        "network": "SL",
        "ref": "13615",
        "route_ref": "143;181;188;193",
        "shelter": "yes"
      },
      "geometry": {
        "type": "Point",
        "coordinates": [
          18.1134813,
          59.2559022
        ]
      },
      "id": "node/428067273"
    },
    {
      "type": "Feature",
      "properties": {
        "@id": "node/428067274",
        "highway": "bus_stop",
        "name": "Sköndals centrum",
        "network": "SL",
        "ref": "13616",
        "route_ref": "143;181;188;193",
        "shelter": "yes"
      },
      "geometry": {
        "type": "Point",
        "coordinates": [
          18.1138991,
          59.255854
        ]
      },
      "id": "node/428067274"
    },
    {
      "type": "Feature",
      "properties": {
        "@id": "node/428067351",
        "bench": "yes",
        "highway": "bus_stop",
        "name": "Dalbobranten",
        "network": "SL",
        "route_ref": "143;181;188;193",
        "shelter": "yes"
      },
      "geometry": {
        "type": "Point",
        "coordinates": [
          18.116101,
          59.2542248
        ]
      },
      "id": "node/428067351"
    },
    {
      "type": "Feature",
      "properties": {
        "@id": "node/428067354",
        "bench": "yes",
        "bin": "yes",
        "check_date:bin": "2021-08-06",
        "highway": "bus_stop",
        "name": "Dalbobranten",
        "network": "SL",
        "ref": "13617",
        "route_ref": "143;181;188;193",
        "shelter": "yes",
        "tactile_paving": "no"
      },
      "geometry": {
        "type": "Point",
        "coordinates": [
          18.1157597,
          59.2541859
        ]
      },
      "id": "node/428067354"
    },
    {
      "type": "Feature",
      "properties": {
        "@id": "node/428067489",
        "bench": "yes",
        "bin": "yes",
        "highway": "bus_stop",
        "name": "Stora Sköndal",
        "network": "SL",
        "ref": "13619",
        "route_ref": "143;181;188;193",
        "shelter": "yes"
      },
      "geometry": {
        "type": "Point",
        "coordinates": [
          18.1181892,
          59.2527462
        ]
      },
      "id": "node/428067489"
    },
    {
      "type": "Feature",
      "properties": {
        "@id": "node/428067490",
        "highway": "bus_stop",
        "name": "Stora Sköndal",
        "network": "SL",
        "ref": "13620",
        "route_ref": "143;181;188;193",
        "shelter": "yes"
      },
      "geometry": {
        "type": "Point",
        "coordinates": [
          18.1185422,
          59.2524995
        ]
      },
      "id": "node/428067490"
    },
    {
      "type": "Feature",
      "properties": {
        "@id": "node/433859957",
        "bench": "yes",
        "bin": "yes",
        "check_date:shelter": "2023-07-23",
        "highway": "bus_stop",
        "lit": "yes",
        "name": "Ottsjövägen",
        "network": "SL",
        "ref": "13125",
        "route_ref": "160",
        "shelter": "yes",
        "tactile_paving": "yes"
      },
      "geometry": {
        "type": "Point",
        "coordinates": [
          18.0418941,
          59.3001368
        ]
      },
      "id": "node/433859957"
    },
    {
      "type": "Feature",
      "properties": {
        "@id": "node/433860133",
        "bench": "yes",
        "bin": "yes",
        "highway": "bus_stop",
        "lit": "yes",
        "name": "Ottsjövägen",
        "network": "SL",
        "ref": "13126",
        "route_ref": "160",
        "shelter": "yes",
        "tactile_paving": "yes"
      },
      "geometry": {
        "type": "Point",
        "coordinates": [
          18.0428221,
          59.2996093
        ]
      },
      "id": "node/433860133"
    },
    {
      "type": "Feature",
      "properties": {
        "@id": "node/434564158",
        "bench": "yes",
        "highway": "bus_stop",
        "name": "Grantoppsgränd",
        "network": "SL",
        "ref": "51572",
        "route_ref": "198;541",
        "shelter": "yes"
      },
      "geometry": {
        "type": "Point",
        "coordinates": [
          17.8221736,
          59.3890368
        ]
      },
      "id": "node/434564158"
    },
    {
      "type": "Feature",
      "properties": {
        "@id": "node/434564159",
        "bench": "yes",
        "highway": "bus_stop",
        "name": "Grantoppsgränd",
        "network": "SL",
        "ref": "51571",
        "route_ref": "198;541",
        "shelter": "yes"
      },
      "geometry": {
        "type": "Point",
        "coordinates": [
          17.8242216,
          59.3890192
        ]
      },
      "id": "node/434564159"
    },
    {
      "type": "Feature",
      "properties": {
        "@id": "node/434564161",
        "bench": "yes",
        "highway": "bus_stop",
        "name": "Backlura",
        "network": "SL",
        "ref": "55030",
        "route_ref": "119;198",
        "shelter": "yes"
      },
      "geometry": {
        "type": "Point",
        "coordinates": [
          17.8185078,
          59.3925233
        ]
      },
      "id": "node/434564161"
    },
    {
      "type": "Feature",
      "properties": {
        "@id": "node/434564165",
        "bench": "yes",
        "highway": "bus_stop",
        "name": "Knäckepilsgränd",
        "network": "SL",
        "ref": "55028",
        "route_ref": "119;541",
        "shelter": "yes"
      },
      "geometry": {
        "type": "Point",
        "coordinates": [
          17.8169523,
          59.3897028
        ]
      },
      "id": "node/434564165"
    },
    {
      "type": "Feature",
      "properties": {
        "@id": "node/434564167",
        "bench": "yes",
        "highway": "bus_stop",
        "name": "Knäckepilsgränd",
        "network": "SL",
        "ref": "55025",
        "route_ref": "119;541",
        "shelter": "yes"
      },
      "geometry": {
        "type": "Point",
        "coordinates": [
          17.8159889,
          59.3895637
        ]
      },
      "id": "node/434564167"
    },
    {
      "type": "Feature",
      "properties": {
        "@id": "node/434564168",
        "bench": "yes",
        "highway": "bus_stop",
        "name": "Backlöksvägen",
        "network": "SL",
        "ref": "55026",
        "route_ref": "119;541",
        "shelter": "yes"
      },
      "geometry": {
        "type": "Point",
        "coordinates": [
          17.8110127,
          59.390765
        ]
      },
      "id": "node/434564168"
    },
    {
      "type": "Feature",
      "properties": {
        "@id": "node/434564169",
        "bench": "yes",
        "highway": "bus_stop",
        "name": "Backlöksvägen",
        "network": "SL",
        "ref": "55023",
        "route_ref": "119;541",
        "shelter": "yes"
      },
      "geometry": {
        "type": "Point",
        "coordinates": [
          17.8104011,
          59.3907862
        ]
      },
      "id": "node/434564169"
    },
    {
      "type": "Feature",
      "properties": {
        "@id": "node/434564170",
        "bench": "yes",
        "highway": "bus_stop",
        "name": "Odalgränd",
        "network": "SL",
        "ref": "55021",
        "route_ref": "119;541",
        "shelter": "yes"
      },
      "geometry": {
        "type": "Point",
        "coordinates": [
          17.8063776,
          59.3909401
        ]
      },
      "id": "node/434564170"
    },
    {
      "type": "Feature",
      "properties": {
        "@id": "node/434564171",
        "bench": "yes",
        "highway": "bus_stop",
        "name": "Odalgränd",
        "network": "SL",
        "ref": "55024",
        "route_ref": "119;541",
        "shelter": "no"
      },
      "geometry": {
        "type": "Point",
        "coordinates": [
          17.8052127,
          59.3908157
        ]
      },
      "id": "node/434564171"
    },
    {
      "type": "Feature",
      "properties": {
        "@id": "node/434564173",
        "highway": "bus_stop",
        "name": "Barnhemsvägen",
        "network": "SL",
        "ref": "55022",
        "route_ref": "119;541",
        "shelter": "yes"
      },
      "geometry": {
        "type": "Point",
        "coordinates": [
          17.8029773,
          59.3884682
        ]
      },
      "id": "node/434564173"
    },
    {
      "type": "Feature",
      "properties": {
        "@id": "node/434564175",
        "bench": "yes",
        "highway": "bus_stop",
        "name": "Barnhemsvägen",
        "network": "SL",
        "ref": "55019",
        "route_ref": "119;541",
        "shelter": "yes"
      },
      "geometry": {
        "type": "Point",
        "coordinates": [
          17.8037089,
          59.3880708
        ]
      },
      "id": "node/434564175"
    },
    {
      "type": "Feature",
      "properties": {
        "@id": "node/434564176",
        "highway": "bus_stop",
        "name": "Kråkbärsgränd",
        "network": "SL",
        "ref": "55020",
        "route_ref": "119;541",
        "shelter": "yes"
      },
      "geometry": {
        "type": "Point",
        "coordinates": [
          17.8029803,
          59.3865962
        ]
      },
      "id": "node/434564176"
    },
    {
      "type": "Feature",
      "properties": {
        "@id": "node/434564177",
        "highway": "bus_stop",
        "name": "Kråkbärsgränd",
        "network": "SL",
        "ref": "55017",
        "route_ref": "119;541",
        "shelter": "yes"
      },
      "geometry": {
        "type": "Point",
        "coordinates": [
          17.8020069,
          59.3861649
        ]
      },
      "id": "node/434564177"
    },
    {
      "type": "Feature",
      "properties": {
        "@id": "node/434566117",
        "highway": "bus_stop",
        "name": "Lingonrisgränd",
        "network": "SL",
        "ref": "55018",
        "route_ref": "119;541",
        "shelter": "yes"
      },
      "geometry": {
        "type": "Point",
        "coordinates": [
          17.799423,
          59.3854564
        ]
      },
      "id": "node/434566117"
    },
    {
      "type": "Feature",
      "properties": {
        "@id": "node/434566118",
        "highway": "bus_stop",
        "name": "Lingonrisgränd",
        "network": "SL",
        "ref": "55015",
        "route_ref": "119;541",
        "shelter": "no"
      },
      "geometry": {
        "type": "Point",
        "coordinates": [
          17.7991434,
          59.3849633
        ]
      },
      "id": "node/434566118"
    },
    {
      "type": "Feature",
      "properties": {
        "@id": "node/434566119",
        "bench": "yes",
        "highway": "bus_stop",
        "name": "Riddersvik",
        "network": "SL",
        "ref": "55011",
        "route_ref": "119;541",
        "shelter": "yes"
      },
      "geometry": {
        "type": "Point",
        "coordinates": [
          17.8041351,
          59.3812975
        ]
      },
      "id": "node/434566119"
    },
    {
      "type": "Feature",
      "properties": {
        "@id": "node/434566121",
        "bench": "yes",
        "highway": "bus_stop",
        "name": "Riddersvik",
        "network": "SL",
        "ref": "55012",
        "route_ref": "119;541",
        "shelter": "yes"
      },
      "geometry": {
        "type": "Point",
        "coordinates": [
          17.8051635,
          59.381012
        ]
      },
      "id": "node/434566121"
    },
    {
      "type": "Feature",
      "properties": {
        "@id": "node/434566122",
        "bench": "yes",
        "highway": "bus_stop",
        "name": "Viadukten",
        "network": "SL",
        "ref": "50119",
        "route_ref": "119;541",
        "shelter": "yes"
      },
      "geometry": {
        "type": "Point",
        "coordinates": [
          17.8094505,
          59.380321
        ]
      },
      "id": "node/434566122"
    },
    {
      "type": "Feature",
      "properties": {
        "@id": "node/434566123",
        "bench": "yes",
        "highway": "bus_stop",
        "name": "Viadukten",
        "network": "SL",
        "ref": "50120",
        "route_ref": "119;541",
        "shelter": "yes"
      },
      "geometry": {
        "type": "Point",
        "coordinates": [
          17.810432,
          59.3800019
        ]
      },
      "id": "node/434566123"
    },
    {
      "type": "Feature",
      "properties": {
        "@id": "node/434566124",
        "bench": "yes",
        "bin": "yes",
        "check_date:shelter": "2023-09-02",
        "highway": "bus_stop",
        "lit": "yes",
        "name": "Åkermyntan",
        "network": "SL",
        "ref": "50117",
        "route_ref": "119;541",
        "shelter": "yes",
        "tactile_paving": "no"
      },
      "geometry": {
        "type": "Point",
        "coordinates": [
          17.8156877,
          59.379178
        ]
      },
      "id": "node/434566124"
    },
    {
      "type": "Feature",
      "properties": {
        "@id": "node/434566125",
        "bench": "yes",
        "highway": "bus_stop",
        "name": "Åkermyntan",
        "network": "SL",
        "ref": "50118",
        "route_ref": "119;541",
        "shelter": "yes"
      },
      "geometry": {
        "type": "Point",
        "coordinates": [
          17.8161644,
          59.3789011
        ]
      },
      "id": "node/434566125"
    },
    {
      "type": "Feature",
      "properties": {
        "@id": "node/434566127",
        "bench": "yes",
        "bin": "yes",
        "highway": "bus_stop",
        "name": "Åkermyntan",
        "network": "SL",
        "ref": "51420",
        "route_ref": "198;518;543",
        "shelter": "yes",
        "source": "survey",
        "wheelchair": "yes"
      },
      "geometry": {
        "type": "Point",
        "coordinates": [
          17.8176488,
          59.3793814
        ]
      },
      "id": "node/434566127"
    },
    {
      "type": "Feature",
      "properties": {
        "@id": "node/434566128",
        "bench": "yes",
        "bin": "yes",
        "check_date:shelter": "2023-02-12",
        "highway": "bus_stop",
        "name": "Åkermyntan",
        "network": "SL",
        "ref": "51421",
        "route_ref": "198;518;543",
        "shelter": "yes"
      },
      "geometry": {
        "type": "Point",
        "coordinates": [
          17.8179004,
          59.3794659
        ]
      },
      "id": "node/434566128"
    },
    {
      "type": "Feature",
      "properties": {
        "@id": "node/434569881",
        "bench": "yes",
        "bin": "yes",
        "highway": "bus_stop",
        "name": "Riddersviksvägen",
        "network": "SL",
        "route_ref": "119;198",
        "shelter": "yes"
      },
      "geometry": {
        "type": "Point",
        "coordinates": [
          17.8154876,
          59.3768984
        ]
      },
      "id": "node/434569881"
    },
    {
      "type": "Feature",
      "properties": {
        "@id": "node/434569884",
        "bench": "yes",
        "bin": "yes",
        "highway": "bus_stop",
        "name": "Riddersviksvägen",
        "network": "SL",
        "route_ref": "119;198",
        "shelter": "yes",
        "tactile_paving": "yes"
      },
      "geometry": {
        "type": "Point",
        "coordinates": [
          17.81527,
          59.3762805
        ]
      },
      "id": "node/434569884"
    },
    {
      "type": "Feature",
      "properties": {
        "@id": "node/434569894",
        "bench": "yes",
        "bin": "yes",
        "highway": "bus_stop",
        "name": "Snårvindevägen",
        "network": "SL",
        "ref": "51423",
        "route_ref": "198;518;543",
        "shelter": "yes"
      },
      "geometry": {
        "type": "Point",
        "coordinates": [
          17.8233885,
          59.3820845
        ]
      },
      "id": "node/434569894"
    },
    {
      "type": "Feature",
      "properties": {
        "@id": "node/434569897",
        "bench": "yes",
        "highway": "bus_stop",
        "name": "Snårvindevägen",
        "network": "SL",
        "ref": "51422",
        "route_ref": "198;518;543",
        "shelter": "yes"
      },
      "geometry": {
        "type": "Point",
        "coordinates": [
          17.8230429,
          59.3820119
        ]
      },
      "id": "node/434569897"
    },
    {
      "type": "Feature",
      "properties": {
        "@id": "node/434569899",
        "bench": "yes",
        "highway": "bus_stop",
        "name": "Växthusvägen",
        "network": "SL",
        "ref": "51612",
        "route_ref": "198;541;543",
        "shelter": "yes"
      },
      "geometry": {
        "type": "Point",
        "coordinates": [
          17.824728,
          59.3855201
        ]
      },
      "id": "node/434569899"
    },
    {
      "type": "Feature",
      "properties": {
        "@id": "node/434646706",
        "bench": "yes",
        "bin": "yes",
        "check_date:shelter": "2023-02-12",
        "highway": "bus_stop",
        "name": "Växthusvägen",
        "network": "SL",
        "ref": "51613",
        "route_ref": "198;541;543",
        "shelter": "yes"
      },
      "geometry": {
        "type": "Point",
        "coordinates": [
          17.825141,
          59.3860112
        ]
      },
      "id": "node/434646706"
    },
    {
      "type": "Feature",
      "properties": {
        "@id": "node/438552005",
        "check_date:shelter": "2023-09-02",
        "highway": "bus_stop",
        "name": "Smedshagsvägen",
        "network": "SL",
        "ref": "51419",
        "route_ref": "518;541;543",
        "shelter": "yes"
      },
      "geometry": {
        "type": "Point",
        "coordinates": [
          17.8238642,
          59.3778635
        ]
      },
      "id": "node/438552005"
    },
    {
      "type": "Feature",
      "properties": {
        "@id": "node/438564299",
        "highway": "bus_stop",
        "name": "Smedshagsvägen",
        "network": "SL",
        "ref": "51418",
        "route_ref": "518;541;543"
      },
      "geometry": {
        "type": "Point",
        "coordinates": [
          17.8256563,
          59.3774349
        ]
      },
      "id": "node/438564299"
    },
    {
      "type": "Feature",
      "properties": {
        "@id": "node/438564304",
        "highway": "bus_stop",
        "name": "Råcksta begravningsplats",
        "network": "SL",
        "ref": "12463",
        "route_ref": "115",
        "shelter": "no"
      },
      "geometry": {
        "type": "Point",
        "coordinates": [
          17.8708191,
          59.3563581
        ]
      },
      "id": "node/438564304"
    },
    {
      "type": "Feature",
      "properties": {
        "@id": "node/438568968",
        "highway": "bus_stop",
        "name": "Bergslagsvägen",
        "network": "SL",
        "ref": "12473",
        "route_ref": "115",
        "shelter": "yes"
      },
      "geometry": {
        "type": "Point",
        "coordinates": [
          17.8706977,
          59.3589598
        ]
      },
      "id": "node/438568968"
    },
    {
      "type": "Feature",
      "properties": {
        "@id": "node/438570184",
        "highway": "bus_stop",
        "name": "Grimsta",
        "network": "SL",
        "ref": "12475",
        "route_ref": "115",
        "shelter": "yes"
      },
      "geometry": {
        "type": "Point",
        "coordinates": [
          17.8684247,
          59.3600312
        ]
      },
      "id": "node/438570184"
    },
    {
      "type": "Feature",
      "properties": {
        "@id": "node/438591788",
        "bench": "yes",
        "highway": "bus_stop",
        "name": "Grimstaskolan",
        "network": "SL",
        "ref": "12477",
        "route_ref": "115",
        "shelter": "yes"
      },
      "geometry": {
        "type": "Point",
        "coordinates": [
          17.8658588,
          59.3613431
        ]
      },
      "id": "node/438591788"
    },
    {
      "type": "Feature",
      "properties": {
        "@id": "node/438591791",
        "highway": "bus_stop",
        "name": "Vällingby-Flexen",
        "network": "SL",
        "route_ref": "Vällingby-Flexen;53",
        "shelter": "no",
        "tactile_paving": "no",
        "url": "http://sl.se/sv/Resenar/Planera-resa/Tillganglighet/Nartrafiken/"
      },
      "geometry": {
        "type": "Point",
        "coordinates": [
          17.8604992,
          59.3626304
        ]
      },
      "id": "node/438591791"
    },
    {
      "type": "Feature",
      "properties": {
        "@id": "node/438608202",
        "bench": "yes",
        "bin": "no",
        "highway": "bus_stop",
        "lit": "yes",
        "name": "Blackebergs skola",
        "shelter": "no",
        "tactile_paving": "no"
      },
      "geometry": {
        "type": "Point",
        "coordinates": [
          17.8784055,
          59.3483997
        ]
      },
      "id": "node/438608202"
    },
    {
      "type": "Feature",
      "properties": {
        "@id": "node/438608203",
        "bench": "yes",
        "bin": "no",
        "highway": "bus_stop",
        "lit": "yes",
        "name": "Stenen",
        "shelter": "no",
        "tactile_paving": "no"
      },
      "geometry": {
        "type": "Point",
        "coordinates": [
          17.8777693,
          59.3462998
        ]
      },
      "id": "node/438608203"
    },
    {
      "type": "Feature",
      "properties": {
        "@id": "node/438608204",
        "highway": "bus_stop",
        "name": "Kiellandsplan"
      },
      "geometry": {
        "type": "Point",
        "coordinates": [
          17.8804378,
          59.344978
        ]
      },
      "id": "node/438608204"
    },
    {
      "type": "Feature",
      "properties": {
        "@id": "node/438608205",
        "highway": "bus_stop",
        "name": "Holbergsgatan"
      },
      "geometry": {
        "type": "Point",
        "coordinates": [
          17.8833016,
          59.3434871
        ]
      },
      "id": "node/438608205"
    },
    {
      "type": "Feature",
      "properties": {
        "@id": "node/438608206",
        "bench": "yes",
        "bin": "yes",
        "check_date:shelter": "2023-08-27",
        "highway": "bus_stop",
        "lit": "yes",
        "name": "Blackebergs grindstuga",
        "network": "SL",
        "route_ref": "113;127;909",
        "shelter": "yes",
        "tactile_paving": "yes"
      },
      "geometry": {
        "type": "Point",
        "coordinates": [
          17.885027,
          59.340949
        ]
      },
      "id": "node/438608206"
    },
    {
      "type": "Feature",
      "properties": {
        "@id": "node/438608207",
        "bench": "yes",
        "bin": "no",
        "check_date:shelter": "2024-03-06",
        "highway": "bus_stop",
        "name": "Blackebergs gård",
        "network": "SL",
        "route_ref": "113;127",
        "shelter": "yes",
        "tactile_paving": "yes"
      },
      "geometry": {
        "type": "Point",
        "coordinates": [
          17.8773926,
          59.3424168
        ]
      },
      "id": "node/438608207"
    },
    {
      "type": "Feature",
      "properties": {
        "@id": "node/438638497",
        "bench": "no",
        "bin": "no",
        "check_date:shelter": "2023-08-27",
        "highway": "bus_stop",
        "lit": "yes",
        "name": "Mälarbacken",
        "network": "SL",
        "route_ref": "113;127",
        "shelter": "no",
        "tactile_paving": "yes"
      },
      "geometry": {
        "type": "Point",
        "coordinates": [
          17.8807327,
          59.3413187
        ]
      },
      "id": "node/438638497"
    },
    {
      "type": "Feature",
      "properties": {
        "@id": "node/438638501",
        "bench": "yes",
        "bin": "yes",
        "check_date:shelter": "2023-08-27",
        "highway": "bus_stop",
        "lit": "yes",
        "name": "Mälarbacken",
        "network": "SL",
        "route_ref": "113;127",
        "shelter": "yes",
        "tactile_paving": "yes"
      },
      "geometry": {
        "type": "Point",
        "coordinates": [
          17.8812526,
          59.3411861
        ]
      },
      "id": "node/438638501"
    },
    {
      "type": "Feature",
      "properties": {
        "@id": "node/439812219",
        "bench": "no",
        "highway": "bus_stop",
        "name": "Islandstorget",
        "network": "SL",
        "route_ref": "198",
        "shelter": "no"
      },
      "geometry": {
        "type": "Point",
        "coordinates": [
          17.8945405,
          59.3464829
        ]
      },
      "id": "node/439812219"
    },
    {
      "type": "Feature",
      "properties": {
        "@id": "node/439812224",
        "bench": "no",
        "highway": "bus_stop",
        "name": "Björnsonsgatan",
        "network": "SL",
        "route_ref": "198",
        "shelter": "no"
      },
      "geometry": {
        "type": "Point",
        "coordinates": [
          17.8862647,
          59.3509219
        ]
      },
      "id": "node/439812224"
    },
    {
      "type": "Feature",
      "properties": {
        "@id": "node/440644357",
        "bench": "yes",
        "bin": "yes",
        "highway": "bus_stop",
        "lit": "no",
        "name": "Krossgatan",
        "network": "SL",
        "shelter": "yes",
        "tactile_paving": "no"
      },
      "geometry": {
        "type": "Point",
        "coordinates": [
          17.8536116,
          59.3686024
        ]
      },
      "id": "node/440644357"
    },
    {
      "type": "Feature",
      "properties": {
        "@id": "node/440647234",
        "bench": "yes",
        "bin": "yes",
        "highway": "bus_stop",
        "name": "Rödklövervägen",
        "network": "SL",
        "route_ref": "119",
        "shelter": "yes"
      },
      "geometry": {
        "type": "Point",
        "coordinates": [
          17.8369139,
          59.3760882
        ]
      },
      "id": "node/440647234"
    },
    {
      "type": "Feature",
      "properties": {
        "@id": "node/440647235",
        "bin": "yes",
        "highway": "bus_stop",
        "name": "Rödklövervägen",
        "network": "SL",
        "route_ref": "119",
        "shelter": "no"
      },
      "geometry": {
        "type": "Point",
        "coordinates": [
          17.836602,
          59.3763094
        ]
      },
      "id": "node/440647235"
    },
    {
      "type": "Feature",
      "properties": {
        "@id": "node/442118958",
        "bench": "yes",
        "bin": "yes",
        "check_date:shelter": "2023-07-04",
        "highway": "bus_stop",
        "name": "Skagersvägen",
        "network": "SL",
        "ref": "13109",
        "route_ref": "160;164",
        "shelter": "yes",
        "tactile_paving": "yes"
      },
      "geometry": {
        "type": "Point",
        "coordinates": [
          18.0647277,
          59.2980079
        ]
      },
      "id": "node/442118958"
    },
    {
      "type": "Feature",
      "properties": {
        "@id": "node/442118959",
        "highway": "bus_stop",
        "name": "Vättersvägen",
        "network": "SL",
        "ref": "13111",
        "route_ref": "160;164",
        "shelter": "no"
      },
      "geometry": {
        "type": "Point",
        "coordinates": [
          18.0601848,
          59.2987118
        ]
      },
      "id": "node/442118959"
    },
    {
      "type": "Feature",
      "properties": {
        "@id": "node/442118965",
        "bench": "yes",
        "bin": "yes",
        "highway": "bus_stop",
        "lit": "yes",
        "name": "Årsta torg",
        "network": "SL",
        "ref": "13216",
        "route_ref": "160;168",
        "shelter": "yes",
        "tactile_paving": "yes"
      },
      "geometry": {
        "type": "Point",
        "coordinates": [
          18.0509046,
          59.297081
        ]
      },
      "id": "node/442118965"
    },
    {
      "type": "Feature",
      "properties": {
        "@id": "node/442254293",
        "highway": "bus_stop",
        "name": "Bolidenvägen",
        "network": "SL",
        "route_ref": "144;168;791",
        "shelter": "no"
      },
      "geometry": {
        "type": "Point",
        "coordinates": [
          18.0688029,
          59.295623
        ]
      },
      "id": "node/442254293"
    },
    {
      "type": "Feature",
      "properties": {
        "@id": "node/442682237",
        "highway": "bus_stop",
        "name": "Telestaden",
        "network": "SL",
        "route_ref": "184;828;830;831",
        "shelter": "yes"
      },
      "geometry": {
        "type": "Point",
        "coordinates": [
          18.1085416,
          59.2410456
        ]
      },
      "id": "node/442682237"
    },
    {
      "type": "Feature",
      "properties": {
        "@id": "node/445821592",
        "bench": "yes",
        "bin": "yes",
        "highway": "bus_stop",
        "lit": "yes",
        "name": "Årstaskolan",
        "network": "SL",
        "ref": "13118",
        "route_ref": "160;164",
        "shelter": "yes",
        "tactile_paving": "yes"
      },
      "geometry": {
        "type": "Point",
        "coordinates": [
          18.0562729,
          59.2992554
        ]
      },
      "id": "node/445821592"
    },
    {
      "type": "Feature",
      "properties": {
        "@id": "node/448456105",
        "bench": "yes",
        "bin": "yes",
        "check_date:shelter": "2022-11-05",
        "highway": "bus_stop",
        "name": "Sockengränd",
        "network": "SL",
        "network:wikidata": "Q970452",
        "route_ref": "144;791",
        "shelter": "yes",
        "tactile_paving": "yes"
      },
      "geometry": {
        "type": "Point",
        "coordinates": [
          18.0503083,
          59.2854355
        ]
      },
      "id": "node/448456105"
    },
    {
      "type": "Feature",
      "properties": {
        "@id": "node/448456107",
        "bench": "yes",
        "bin": "yes",
        "departures_board": "timetable",
        "highway": "bus_stop",
        "lit": "yes",
        "name": "Valla gärde",
        "network": "SL",
        "network:wikidata": "Q970452",
        "route_ref": "144;791",
        "shelter": "yes",
        "tactile_paving": "yes"
      },
      "geometry": {
        "type": "Point",
        "coordinates": [
          18.0567075,
          59.2914206
        ]
      },
      "id": "node/448456107"
    },
    {
      "type": "Feature",
      "properties": {
        "@id": "node/456024161",
        "highway": "bus_stop",
        "name": "Telestaden",
        "network": "SL",
        "route_ref": "828;830;831",
        "shelter": "yes"
      },
      "geometry": {
        "type": "Point",
        "coordinates": [
          18.1116914,
          59.2409361
        ]
      },
      "id": "node/456024161"
    },
    {
      "type": "Feature",
      "properties": {
        "@id": "node/456024181",
        "bench": "yes",
        "bin": "yes",
        "highway": "bus_stop",
        "name": "Ågesta broväg",
        "network": "SL",
        "route_ref": "181;193",
        "shelter": "yes",
        "tactile_paving": "yes"
      },
      "geometry": {
        "type": "Point",
        "coordinates": [
          18.1049528,
          59.2424986
        ]
      },
      "id": "node/456024181"
    },
    {
      "type": "Feature",
      "properties": {
        "@id": "node/457045953",
        "bench": "yes",
        "bin": "yes",
        "highway": "bus_stop",
        "name": "Tensta centrum",
        "network": "SL",
        "route_ref": "179;196;514;540",
        "shelter": "yes",
        "tactile_paving": "yes"
      },
      "geometry": {
        "type": "Point",
        "coordinates": [
          17.9070444,
          59.3946052
        ]
      },
      "id": "node/457045953"
    },
    {
      "type": "Feature",
      "properties": {
        "@id": "node/458453326",
        "bench": "yes",
        "bin": "yes",
        "highway": "bus_stop",
        "lit": "yes",
        "name": "Sköntorp",
        "network": "SL",
        "ref": "13120",
        "route_ref": "164",
        "shelter": "yes",
        "tactile_paving": "yes"
      },
      "geometry": {
        "type": "Point",
        "coordinates": [
          18.0522534,
          59.3011628
        ]
      },
      "id": "node/458453326"
    },
    {
      "type": "Feature",
      "properties": {
        "@id": "node/459563540",
        "bus": "yes",
        "highway": "bus_stop",
        "name": "Duvholmsgränd",
        "public_transport": "platform"
      },
      "geometry": {
        "type": "Point",
        "coordinates": [
          17.8868529,
          59.2803825
        ]
      },
      "id": "node/459563540"
    },
    {
      "type": "Feature",
      "properties": {
        "@id": "node/467682628",
        "highway": "bus_stop",
        "name": "Gammelgårdsvägen",
        "network": "SL",
        "ref": "10744",
        "route_ref": "56",
        "shelter": "no"
      },
      "geometry": {
        "type": "Point",
        "coordinates": [
          17.9958904,
          59.3201182
        ]
      },
      "id": "node/467682628"
    },
    {
      "type": "Feature",
      "properties": {
        "@id": "node/467682633",
        "highway": "bus_stop",
        "name": "Eremitvägen",
        "network": "SL",
        "ref": "10734",
        "route_ref": "56",
        "shelter": "yes"
      },
      "geometry": {
        "type": "Point",
        "coordinates": [
          17.9933166,
          59.3191301
        ]
      },
      "id": "node/467682633"
    },
    {
      "type": "Feature",
      "properties": {
        "@id": "node/467682635",
        "bench": "yes",
        "bin": "yes",
        "check_date:shelter": "2023-07-29",
        "highway": "bus_stop",
        "lit": "yes",
        "name": "Stenkullavägen",
        "network": "SL",
        "ref": "10732",
        "route_ref": "56",
        "shelter": "yes",
        "tactile_paving": "yes"
      },
      "geometry": {
        "type": "Point",
        "coordinates": [
          17.9896246,
          59.3189262
        ]
      },
      "id": "node/467682635"
    },
    {
      "type": "Feature",
      "properties": {
        "@id": "node/467682638",
        "bench": "yes",
        "bin": "yes",
        "check_date:shelter": "2023-07-29",
        "highway": "bus_stop",
        "lit": "yes",
        "name": "Essingetorget",
        "network": "SL",
        "ref": "10736",
        "route_ref": "1;56;91",
        "shelter": "yes",
        "tactile_paving": "yes"
      },
      "geometry": {
        "type": "Point",
        "coordinates": [
          17.9882855,
          59.3203568
        ]
      },
      "id": "node/467682638"
    },
    {
      "type": "Feature",
      "properties": {
        "@id": "node/467682641",
        "bench": "yes",
        "highway": "bus_stop",
        "name": "Flottbrovägen",
        "network": "SL",
        "ref": "10733",
        "route_ref": "1;56;91",
        "shelter": "yes"
      },
      "geometry": {
        "type": "Point",
        "coordinates": [
          17.9901615,
          59.3224613
        ]
      },
      "id": "node/467682641"
    },
    {
      "type": "Feature",
      "properties": {
        "@id": "node/467682645",
        "bench": "yes",
        "highway": "bus_stop",
        "name": "Fria Ukrainas plats",
        "network": "SL",
        "ref": "10729",
        "route_ref": "1;56;91",
        "shelter": "yes"
      },
      "geometry": {
        "type": "Point",
        "coordinates": [
          18.0177129,
          59.3273004
        ]
      },
      "id": "node/467682645"
    },
    {
      "type": "Feature",
      "properties": {
        "@id": "node/467682650",
        "bench": "yes",
        "highway": "bus_stop",
        "name": "Fria Ukrainas plats",
        "network": "SL",
        "ref": "10462",
        "route_ref": "1;56;91",
        "shelter": "yes"
      },
      "geometry": {
        "type": "Point",
        "coordinates": [
          18.0173705,
          59.3269571
        ]
      },
      "id": "node/467682650"
    },
    {
      "type": "Feature",
      "properties": {
        "@id": "node/467682652",
        "bench": "yes",
        "bin": "yes",
        "highway": "bus_stop",
        "lit": "no",
        "name": "Wivalliusgatan",
        "network": "SL",
        "ref": "10449",
        "route_ref": "1;56;91",
        "shelter": "yes",
        "tactile_paving": "yes"
      },
      "geometry": {
        "type": "Point",
        "coordinates": [
          18.0130222,
          59.3265803
        ]
      },
      "id": "node/467682652"
    },
    {
      "type": "Feature",
      "properties": {
        "@id": "node/467682655",
        "bench": "yes",
        "bin": "yes",
        "highway": "bus_stop",
        "lit": "no",
        "name": "Wivalliusgatan",
        "network": "SL",
        "ref": "10450",
        "route_ref": "1;56;91",
        "shelter": "yes",
        "tactile_paving": "yes"
      },
      "geometry": {
        "type": "Point",
        "coordinates": [
          18.0132242,
          59.3264941
        ]
      },
      "id": "node/467682655"
    },
    {
      "type": "Feature",
      "properties": {
        "@id": "node/467682658",
        "bench": "yes",
        "bin": "yes",
        "check_date:shelter": "2021-08-05",
        "highway": "bus_stop",
        "lit": "yes",
        "name": "Lilla Essingen",
        "network": "SL",
        "ref": "10451",
        "route_ref": "1;56;91",
        "shelter": "yes",
        "tactile_paving": "no"
      },
      "geometry": {
        "type": "Point",
        "coordinates": [
          18.00892,
          59.3255961
        ]
      },
      "id": "node/467682658"
    },
    {
      "type": "Feature",
      "properties": {
        "@id": "node/467682660",
        "bench": "yes",
        "bin": "yes",
        "check_date:shelter": "2021-08-05",
        "highway": "bus_stop",
        "lit": "yes",
        "name": "Lilla Essingen",
        "network": "SL",
        "ref": "10452",
        "route_ref": "1;56;91",
        "shelter": "yes",
        "tactile_paving": "no"
      },
      "geometry": {
        "type": "Point",
        "coordinates": [
          18.0093841,
          59.3255845
        ]
      },
      "id": "node/467682660"
    },
    {
      "type": "Feature",
      "properties": {
        "@id": "node/467682666",
        "bench": "yes",
        "bin": "yes",
        "check_date:shelter": "2022-03-14",
        "highway": "bus_stop",
        "lit": "yes",
        "name": "Primusgatan",
        "network": "SL",
        "ref": "10453",
        "route_ref": "1;56;91",
        "shelter": "yes",
        "tactile_paving": "yes"
      },
      "geometry": {
        "type": "Point",
        "coordinates": [
          18.0025469,
          59.3257219
        ]
      },
      "id": "node/467682666"
    },
    {
      "type": "Feature",
      "properties": {
        "@id": "node/467682669",
        "bench": "yes",
        "bin": "yes",
        "check_date:shelter": "2022-03-14",
        "highway": "bus_stop",
        "lit": "yes",
        "name": "Primusgatan",
        "network": "SL",
        "ref": "10454",
        "route_ref": "1;56;91",
        "shelter": "yes",
        "tactile_paving": "yes"
      },
      "geometry": {
        "type": "Point",
        "coordinates": [
          18.0029936,
          59.3256947
        ]
      },
      "id": "node/467682669"
    },
    {
      "type": "Feature",
      "properties": {
        "@id": "node/467682671",
        "bench": "no",
        "check_date:shelter": "2022-02-09",
        "highway": "bus_stop",
        "name": "Broparken",
        "network": "SL",
        "ref": "10731",
        "route_ref": "1;56;91",
        "shelter": "no"
      },
      "geometry": {
        "type": "Point",
        "coordinates": [
          17.9935637,
          59.3241004
        ]
      },
      "id": "node/467682671"
    },
    {
      "type": "Feature",
      "properties": {
        "@id": "node/467682673",
        "bench": "no",
        "bin": "yes",
        "check_date:shelter": "2022-02-09",
        "highway": "bus_stop",
        "lit": "no",
        "name": "Broparken",
        "network": "SL",
        "ref": "10456",
        "route_ref": "1;91",
        "shelter": "no",
        "tactile_paving": "yes"
      },
      "geometry": {
        "type": "Point",
        "coordinates": [
          17.9939204,
          59.3241258
        ]
      },
      "id": "node/467682673"
    },
    {
      "type": "Feature",
      "properties": {
        "@id": "node/467682681",
        "bench": "yes",
        "bin": "no",
        "check_date:shelter": "2022-02-09",
        "highway": "bus_stop",
        "lit": "no",
        "name": "Sällskapsvägen",
        "network": "SL",
        "ref": "10746",
        "route_ref": "56",
        "shelter": "yes",
        "tactile_paving": "no"
      },
      "geometry": {
        "type": "Point",
        "coordinates": [
          17.9960687,
          59.3217998
        ]
      },
      "id": "node/467682681"
    },
    {
      "type": "Feature",
      "properties": {
        "@id": "node/468418998",
        "bench": "yes",
        "highway": "bus_stop",
        "name": "Marieberg",
        "network": "SL",
        "ref": "10464",
        "route_ref": "61",
        "shelter": "yes"
      },
      "geometry": {
        "type": "Point",
        "coordinates": [
          18.01507,
          59.3285814
        ]
      },
      "id": "node/468418998"
    },
    {
      "type": "Feature",
      "properties": {
        "@id": "node/468419003",
        "bench": "yes",
        "highway": "bus_stop",
        "name": "Wennerbergsgatan",
        "network": "SL",
        "ref": "10466",
        "route_ref": "61",
        "shelter": "yes",
        "tactile_paving": "yes"
      },
      "geometry": {
        "type": "Point",
        "coordinates": [
          18.0123083,
          59.3286798
        ]
      },
      "id": "node/468419003"
    },
    {
      "type": "Feature",
      "properties": {
        "@id": "node/468419005",
        "bench": "yes",
        "highway": "bus_stop",
        "name": "Viktor Rydbergs gata",
        "network": "SL",
        "ref": "10448",
        "route_ref": "61",
        "shelter": "yes",
        "tactile_paving": "yes"
      },
      "geometry": {
        "type": "Point",
        "coordinates": [
          18.0085247,
          59.3290493
        ]
      },
      "id": "node/468419005"
    },
    {
      "type": "Feature",
      "properties": {
        "@id": "node/468419008",
        "bench": "yes",
        "highway": "bus_stop",
        "name": "Vitalisvägen",
        "network": "SL",
        "ref": "10446",
        "route_ref": "61",
        "shelter": "yes"
      },
      "geometry": {
        "type": "Point",
        "coordinates": [
          18.006136,
          59.3295645
        ]
      },
      "id": "node/468419008"
    },
    {
      "type": "Feature",
      "properties": {
        "@id": "node/468419012",
        "bench": "yes",
        "highway": "bus_stop",
        "name": "Fredhäll",
        "network": "SL",
        "ref": "10901",
        "route_ref": "65",
        "shelter": "yes"
      },
      "geometry": {
        "type": "Point",
        "coordinates": [
          18.0027242,
          59.3300159
        ]
      },
      "id": "node/468419012"
    },
    {
      "type": "Feature",
      "properties": {
        "@id": "node/468419016",
        "highway": "bus_stop",
        "name": "Fredhäll",
        "network": "SL",
        "ref": "10439",
        "route_ref": "61",
        "shelter": "yes"
      },
      "geometry": {
        "type": "Point",
        "coordinates": [
          18.003647,
          59.3300047
        ]
      },
      "id": "node/468419016"
    },
    {
      "type": "Feature",
      "properties": {
        "@id": "node/468419019",
        "bench": "yes",
        "highway": "bus_stop",
        "name": "Vitalisvägen",
        "network": "SL",
        "ref": "10445",
        "route_ref": "61",
        "shelter": "yes"
      },
      "geometry": {
        "type": "Point",
        "coordinates": [
          18.0056636,
          59.3295249
        ]
      },
      "id": "node/468419019"
    },
    {
      "type": "Feature",
      "properties": {
        "@id": "node/468419021",
        "bench": "yes",
        "highway": "bus_stop",
        "name": "Viktor Rydbergs gata",
        "network": "SL",
        "ref": "10447",
        "route_ref": "61",
        "shelter": "yes",
        "tactile_paving": "yes"
      },
      "geometry": {
        "type": "Point",
        "coordinates": [
          18.0099417,
          59.3285698
        ]
      },
      "id": "node/468419021"
    },
    {
      "type": "Feature",
      "properties": {
        "@id": "node/468419028",
        "bench": "yes",
        "highway": "bus_stop",
        "name": "Wennerbergsgatan",
        "network": "SL",
        "ref": "10903",
        "route_ref": "61",
        "shelter": "yes"
      },
      "geometry": {
        "type": "Point",
        "coordinates": [
          18.0138488,
          59.328295
        ]
      },
      "id": "node/468419028"
    },
    {
      "type": "Feature",
      "properties": {
        "@id": "node/468419071",
        "bench": "yes",
        "highway": "bus_stop",
        "name": "Marieberg",
        "network": "SL",
        "ref": "10905",
        "route_ref": "61",
        "shelter": "yes"
      },
      "geometry": {
        "type": "Point",
        "coordinates": [
          18.0161018,
          59.3282628
        ]
      },
      "id": "node/468419071"
    },
    {
      "type": "Feature",
      "properties": {
        "@id": "node/468419075",
        "bench": "yes",
        "bin": "yes",
        "highway": "bus_stop",
        "lit": "yes",
        "name": "Västerbroplan",
        "network": "SL",
        "ref": "10728",
        "route_ref": "1;56;61;91",
        "shelter": "yes",
        "tactile_paving": "yes"
      },
      "geometry": {
        "type": "Point",
        "coordinates": [
          18.0203252,
          59.3281089
        ]
      },
      "id": "node/468419075"
    },
    {
      "type": "Feature",
      "properties": {
        "@id": "node/468419164",
        "bench": "yes",
        "highway": "bus_stop",
        "name": "Luxparken",
        "network": "SL",
        "ref": "10784",
        "route_ref": "56",
        "shelter": "yes"
      },
      "geometry": {
        "type": "Point",
        "coordinates": [
          18.0072404,
          59.3237813
        ]
      },
      "id": "node/468419164"
    },
    {
      "type": "Feature",
      "properties": {
        "@id": "node/468419172",
        "bench": "yes",
        "bin": "yes",
        "check_date:shelter": "2024-06-04",
        "highway": "bus_stop",
        "lit": "no",
        "name": "Luxparken",
        "network": "SL",
        "ref": "10783",
        "route_ref": "56",
        "shelter": "yes",
        "tactile_paving": "yes"
      },
      "geometry": {
        "type": "Point",
        "coordinates": [
          18.0061433,
          59.3236262
        ]
      },
      "id": "node/468419172"
    },
    {
      "type": "Feature",
      "properties": {
        "@id": "node/468419200",
        "bench": "yes",
        "highway": "bus_stop",
        "name": "Luxgatan",
        "network": "SL",
        "ref": "10737",
        "route_ref": "56",
        "shelter": "yes"
      },
      "geometry": {
        "type": "Point",
        "coordinates": [
          18.0026937,
          59.3246561
        ]
      },